City_ID,City,Lat,Lng,Max Temp,Humidity,Cloudiness,Wind Speed,Country,Date
0,avarua,-21.2078,-159.775,82.45,83,100,5.75,CK,1670202425
1,gaya,24.7833,85.0,53.64,54,7,4.27,IN,1670202425
2,arraial do cabo,-22.9661,-42.0278,73.02,89,100,28.74,BR,1670202426
3,rikitea,-23.1203,-134.9692,75.52,81,78,12.12,PF,1670202426
4,sao joao da barra,-21.6403,-41.0511,73.54,86,100,18.14,BR,1670202154
5,ixtapa,20.7,-105.2,78.22,83,40,1.01,MX,1670202427
6,grand gaube,-20.0064,57.6608,76.37,70,57,5.01,MU,1670202428
7,ushuaia,-54.8,-68.3,44.26,65,40,13.8,AR,1670202428
8,cap malheureux,-19.9842,57.6142,76.46,70,69,5.01,MU,1670202429
9,carnarvon,-24.8667,113.6333,73.63,66,8,14.34,AU,1670202429
10,puerto ayora,-0.7393,-90.3518,70.56,88,60,3.0,EC,1670202430
11,saskylakh,71.9167,114.0833,-9.92,96,100,15.41,RU,1670202431
12,saint-philippe,-21.3585,55.7679,72.99,83,25,7.27,RE,1670202431
13,bambous virieux,-20.3428,57.7575,76.21,78,97,11.32,MU,1670202432
14,grindavik,63.8424,-22.4338,39.67,93,100,8.05,IS,1670202432
15,cape town,-33.9258,18.4232,62.28,63,1,8.01,ZA,1670202404
16,punta arenas,-53.15,-70.9167,42.91,75,20,19.57,CL,1670202433
17,karratha,-20.7377,116.8463,94.55,27,6,10.36,AU,1670202434
18,busselton,-33.65,115.3333,65.05,62,100,10.49,AU,1670202434
19,sept-iles,50.2001,-66.3821,10.62,81,45,11.14,CA,1670202243
20,tongliao,43.6125,122.2653,11.68,46,0,10.27,CN,1670202435
21,bethel,41.3712,-73.414,34.65,72,0,0.0,US,1670202436
22,kristiansund,63.1115,7.732,32.65,74,100,4.61,NO,1670202437
23,nantucket,41.2835,-70.0995,39.15,67,0,0.0,US,1670202437
24,lagoa,39.05,-27.9833,59.65,69,100,10.78,PT,1670202438
25,caravelas,-17.7125,-39.2481,73.81,75,100,6.73,BR,1670202228
26,svetlogorsk,52.6333,29.7333,17.46,80,100,9.35,BY,1670202439
27,bredasdorp,-34.5322,20.0403,55.74,75,11,3.87,ZA,1670202334
28,barrow,71.2906,-156.7887,21.22,86,100,25.32,US,1670202440
29,buraydah,26.326,43.975,60.44,62,83,9.44,SA,1670202440
30,kapaa,22.0752,-159.319,82.72,73,40,11.5,US,1670202441
31,yellowknife,62.456,-114.3525,-17.73,93,12,11.48,CA,1670202441
32,bengkulu,-3.8004,102.2655,75.99,85,100,2.01,ID,1670202442
33,ahipara,-35.1667,173.1667,67.66,58,0,5.17,NZ,1670202443
34,jamestown,42.097,-79.2353,32.02,51,0,11.5,US,1670202407
35,cairns,-16.9167,145.7667,89.06,57,0,6.91,AU,1670202154
36,soverato,38.685,16.5499,55.35,63,0,3.44,IT,1670202445
37,chuy,-33.6971,-53.4616,64.49,94,0,6.08,UY,1670202445
38,derzhavinsk,51.1,66.3167,3.27,96,100,6.89,KZ,1670202446
39,albany,42.6001,-73.9662,31.23,79,0,3.85,US,1670202424
40,mataura,-46.1927,168.8643,50.49,60,100,3.67,NZ,1670202447
41,diapaga,12.0708,1.7889,78.12,25,88,6.6,BF,1670202447
42,beringovskiy,63.05,179.3167,9.18,80,76,10.07,RU,1670202374
43,port elizabeth,-33.918,25.5701,60.31,99,100,5.01,ZA,1670202384
44,remontnoye,46.5614,43.6501,16.43,61,7,15.95,RU,1670202448
45,nanakuli,21.3906,-158.1547,81.77,57,100,6.91,US,1670202449
46,bandarbeyla,9.4942,50.8122,75.09,74,100,15.28,SO,1670202449
47,miri,4.4148,114.0089,80.04,84,100,4.03,MY,1670202450
48,bluff,-46.6,168.3333,50.81,67,100,3.13,NZ,1670202338
49,havre-saint-pierre,50.2334,-63.5986,22.37,71,10,16.49,CA,1670202328
50,francavilla al mare,42.4206,14.287,54.99,93,75,1.14,IT,1670202451
51,chokurdakh,70.6333,147.9167,-39.77,100,93,4.16,RU,1670202451
52,zakupne,49.1194,26.3376,27.46,82,100,16.42,UA,1670202452
53,geraldton,-28.7667,114.6,73.81,56,0,9.22,AU,1670202452
54,hermanus,-34.4187,19.2345,58.03,75,18,3.53,ZA,1670202453
55,batagay-alyta,67.8006,130.4114,-11.47,100,100,1.39,RU,1670202454
56,new norfolk,-42.7826,147.0587,53.92,65,100,4.0,AU,1670202314
57,nome,64.5011,-165.4064,33.87,87,100,29.46,US,1670202454
58,kruisfontein,-34.0033,24.7314,56.88,84,95,6.73,ZA,1670202455
59,noumea,-22.2763,166.4572,87.78,81,100,4.23,NC,1670202456
60,klerksdorp,-26.8521,26.6667,70.29,40,15,5.82,ZA,1670202211
61,sioux lookout,50.1001,-91.917,16.45,93,100,7.76,CA,1670202227
62,kloulklubed,7.0419,134.2556,82.9,68,95,18.72,PW,1670202457
63,athens,37.9795,23.7162,56.28,76,40,8.99,GR,1670202417
64,pevek,69.7008,170.3133,2.21,78,100,11.39,RU,1670202458
65,tabory,58.5198,64.5495,-1.12,100,84,2.86,RU,1670202458
66,west bay,19.3667,-81.4167,80.01,66,0,5.01,KY,1670202459
67,upernavik,72.7868,-56.1549,25.36,65,100,8.52,GL,1670202173
68,iqaluit,63.7506,-68.5145,27.7,100,100,3.0,CA,1670202460
69,kodiak,57.79,-152.4072,38.71,87,75,8.05,US,1670202334
70,aberdeen,57.1437,-2.0981,41.49,91,100,3.44,GB,1670202359
71,yongan,39.6957,113.6871,16.32,41,0,3.36,CN,1670202461
72,santa cruz,-17.8,-63.1667,80.06,65,75,2.3,BO,1670202276
73,agua dulce,18.1333,-94.1333,73.18,89,1,9.57,MX,1670202462
74,vaini,-21.2,-175.2,76.64,90,100,16.55,TO,1670202326
75,ilulissat,69.2167,-51.1,37.42,60,100,12.66,GL,1670202463
76,biltine,14.5333,20.9167,69.3,16,0,14.41,TD,1670202464
77,brae,60.3964,-1.353,42.03,68,95,8.01,GB,1670202180
78,pimentel,-6.8367,-79.9342,65.55,82,5,11.41,PE,1670202464
79,srednekolymsk,67.45,153.6833,-47.04,100,61,3.02,RU,1670202465
80,tibiri,13.5627,7.0485,73.94,23,0,10.76,NE,1670202466
81,naze,28.3667,129.4833,65.32,88,95,15.82,JP,1670202467
82,merida,20.9667,-89.6167,77.02,78,20,10.36,MX,1670202468
83,luderitz,-26.6481,15.1594,59.83,71,0,16.67,NA,1670202468
84,saint-pierre,-21.3393,55.4781,73.08,53,0,6.91,RE,1670202216
85,turukhansk,65.8167,87.9833,13.08,96,100,9.53,RU,1670202469
86,bilma,18.6853,12.9164,72.97,19,0,6.91,NE,1670202469
87,alofi,-19.0595,-169.9187,79.9,71,86,2.8,NU,1670202470
88,thompson,55.7435,-97.8558,-11.78,94,100,7.94,CA,1670202470
89,saint george,37.1041,-113.5841,57.25,52,0,3.44,US,1670202358
90,bogale,16.2833,95.4,77.09,84,46,5.3,MM,1670202471
91,nikolskoye,59.7035,30.7861,24.69,95,100,7.72,RU,1670202472
92,aleksandrov gay,50.147,48.5704,14.36,59,28,7.34,RU,1670202472
93,ramhormoz,31.28,49.6035,64.76,45,100,2.91,IR,1670202440
94,codrington,-38.2667,141.9667,56.95,72,100,18.14,AU,1670202473
95,talawakele,6.9371,80.6581,61.29,91,100,2.26,LK,1670202474
96,mangrol,21.1167,70.1167,69.44,37,0,13.65,IN,1670202474
97,basoko,1.2391,23.616,70.27,92,96,3.15,CD,1670202475
98,sao filipe,14.8961,-24.4956,71.96,65,95,4.23,CV,1670202396
99,ponta do sol,32.6667,-17.1,62.71,80,99,19.33,PT,1670202319
100,vostok,46.4856,135.8833,-2.67,88,97,7.18,RU,1670202476
101,cabinda,-5.55,12.2,77.18,87,100,3.49,AO,1670202476
102,tarabha,20.7333,83.65,59.11,73,1,0.78,IN,1670202477
103,krasnoselkup,65.7,82.4667,19.72,95,100,14.9,RU,1670202478
104,chkalovsk,56.7647,43.2433,3.79,94,15,4.76,RU,1670202478
105,georgetown,5.4112,100.3354,80.89,85,20,0.0,MY,1670202270
106,baghpat,28.95,77.2167,53.67,38,0,3.09,IN,1670202479
107,awjilah,29.1081,21.2869,59.56,52,5,7.78,LY,1670202480
108,kavieng,-2.5744,150.7967,81.28,72,100,7.0,PG,1670202480
109,faanui,-16.4833,-151.75,80.76,70,7,15.28,PF,1670202481
110,tiksi,71.6872,128.8694,-8.68,96,100,12.39,RU,1670202481
111,san patricio,28.017,-97.5169,66.92,79,100,6.46,US,1670202482
112,tocopilla,-22.092,-70.1979,68.0,65,0,2.59,CL,1670202482
113,port alfred,-33.5906,26.891,64.18,90,100,1.01,ZA,1670202483
114,huarmey,-10.0681,-78.1522,66.92,81,0,6.46,PE,1670202483
115,stokmarknes,68.5646,14.9108,37.38,87,75,20.71,NO,1670202484
116,ponta delgada,37.7333,-25.6667,57.92,77,20,8.05,PT,1670202484
117,cabo san lucas,22.8909,-109.9124,80.91,72,20,0.0,MX,1670202485
118,qaanaaq,77.484,-69.3632,1.76,69,100,7.87,GL,1670202486
119,tilichiki,60.4667,166.1,6.62,78,100,14.36,RU,1670202486
120,olafsvik,64.8945,-23.7142,42.75,77,96,5.1,IS,1670202402
121,castro,-24.7911,-50.0119,65.05,97,100,3.22,BR,1670202433
122,northam,51.0333,-4.2167,40.39,74,100,12.41,GB,1670202487
123,khartoum,15.5518,32.5324,77.02,44,0,1.01,SD,1670202488
124,rognan,67.0953,15.3878,41.14,94,100,8.81,NO,1670202488
125,butaritari,3.0707,172.7902,80.58,79,29,10.67,KI,1670202489
126,vibo valentia,38.6996,16.1274,50.59,64,0,3.78,IT,1670202489
127,masuguru,-11.3667,38.4167,72.19,78,60,4.27,TZ,1670202490
128,camopi,3.1655,-52.3158,71.47,99,100,2.57,GF,1670202490
129,hilo,19.7297,-155.09,80.33,72,75,9.22,US,1670202491
130,kaduy,59.2,37.15,19.65,78,100,8.21,RU,1670202492
131,mar del plata,-38.0023,-57.5575,65.08,88,3,5.99,AR,1670202236
132,katangli,51.7102,143.2326,-2.49,81,18,15.1,RU,1670202493
133,khatanga,71.9667,102.5,0.0,98,100,4.83,RU,1670202493
134,tokamachi,37.1333,138.7667,41.25,80,100,1.97,JP,1670202494
135,kavaratti,10.5669,72.642,82.58,69,100,7.65,IN,1670202495
136,hamilton,39.1834,-84.5333,34.56,58,0,4.61,US,1670202345
137,avallon,47.4833,3.9,39.56,98,100,7.27,FR,1670202496
138,hammerfest,70.6634,23.6821,27.05,74,40,10.36,NO,1670202496
139,neiafu,-18.65,-173.9833,80.82,67,100,2.17,TO,1670202497
140,maragogi,-9.0122,-35.2225,75.72,87,9,10.2,BR,1670202497
141,mahebourg,-20.4081,57.7,76.24,79,99,11.25,MU,1670202498
142,praia,14.9215,-23.5087,68.54,73,20,5.75,CV,1670202499
143,karasburg,-28.0167,18.75,51.78,70,0,11.34,NA,1670202500
144,comodoro rivadavia,-45.8667,-67.5,69.66,32,0,18.41,AR,1670202418
145,shahjahanpur,27.8833,79.9167,56.98,47,0,3.06,IN,1670202500
146,mount isa,-20.7333,139.5,94.77,16,0,4.61,AU,1670202501
147,vagur,61.4732,-6.8119,41.85,72,100,15.82,FO,1670202502
148,puerto escondido,15.85,-97.0667,79.63,69,0,3.44,MX,1670202502
149,dikson,73.5069,80.5464,28.94,86,100,20.38,RU,1670202503
150,ewa beach,21.3156,-158.0072,81.77,68,100,10.36,US,1670202365
151,yangmei,24.1023,112.5618,40.5,82,100,7.18,CN,1670202504
152,atuona,-9.8,-139.0333,77.63,79,4,19.77,PF,1670202336
153,severo-kurilsk,50.6789,156.125,23.74,85,86,9.42,RU,1670202504
154,kendari,-3.945,122.4989,81.57,77,100,3.49,ID,1670202505
155,usevya,-7.1,31.2333,65.44,95,100,3.56,TZ,1670202505
156,la rioja,42.25,-2.5,31.78,90,6,5.03,ES,1670202506
157,ayan,56.45,138.1667,6.06,60,100,11.01,RU,1670202506
158,lhokseumawe,5.1801,97.1507,77.94,85,82,4.9,ID,1670202507
159,bathsheba,13.2167,-59.5167,75.81,95,20,5.75,BB,1670202392
160,vao,-22.6667,167.4833,77.34,88,98,20.69,NC,1670202508
161,touros,-5.1989,-35.4608,78.28,76,11,13.82,BR,1670202509
162,north bend,43.4065,-124.2243,48.11,92,100,9.22,US,1670202509
163,ancud,-41.8697,-73.8203,55.6,91,100,12.3,CL,1670202510
164,aksarka,66.5606,67.7975,7.57,94,43,5.5,RU,1670202511
165,tromso,69.6496,18.957,30.38,93,75,21.85,NO,1670202511
166,pocoes,-14.5297,-40.3653,64.87,98,100,7.63,BR,1670202512
167,chapais,49.7834,-74.8492,13.78,94,100,7.85,CA,1670202512
168,cherskiy,68.75,161.3,-27.4,97,5,5.17,RU,1670202513
169,kununurra,-15.7667,128.7333,91.38,58,9,3.44,AU,1670202513
170,salalah,17.0151,54.0924,73.49,78,20,5.75,OM,1670202327
171,thinadhoo,0.5333,72.9333,81.48,73,100,6.96,MV,1670202514
172,provideniya,64.3833,-173.3,32.36,93,100,27.0,RU,1670202316
173,hobart,-42.8794,147.3294,54.27,92,75,18.41,AU,1670202317
174,manokwari,-0.8667,134.0833,80.47,81,100,2.48,ID,1670202516
175,bria,6.5423,21.9863,71.89,39,100,2.68,CF,1670202516
176,amazar,53.858,120.875,-14.94,93,94,3.33,RU,1670202517
177,buin,-33.7333,-70.75,80.42,42,0,3.58,CL,1670202517
178,tura,25.5198,90.2201,59.61,85,0,3.71,IN,1670202518
179,ranong,9.9658,98.6348,77.5,92,100,7.87,TH,1670202518
180,rzhaksa,52.1338,42.0264,13.78,70,0,4.76,RU,1670202519
181,lebu,-37.6167,-73.65,56.3,87,0,11.74,CL,1670202519
182,rio gallegos,-51.6226,-69.2181,55.45,35,20,14.97,AR,1670202520
183,rockland,41.1668,-74.0496,40.66,70,0,1.01,US,1670202520
184,vallenar,-28.5708,-70.7581,73.02,44,0,3.02,CL,1670202521
185,altamira,-3.2033,-52.2064,73.71,97,100,3.18,BR,1670202521
186,ler,8.3018,30.1418,75.04,41,21,1.63,SS,1670202522
187,souillac,-20.5167,57.5167,74.71,82,100,10.49,MU,1670202523
188,lavrentiya,65.5833,-171.0,32.58,98,100,35.59,RU,1670202523
189,praia da vitoria,38.7333,-27.0667,56.75,85,94,6.8,PT,1670202524
190,asfi,32.2994,-9.2372,66.96,66,100,22.39,MA,1670202524
191,bhind,26.5642,78.7883,56.84,50,5,3.0,IN,1670202432
192,hovd,48.0056,91.6419,0.97,81,100,2.44,MN,1670202390
193,sirjan,29.452,55.6814,49.59,59,74,6.64,IR,1670202525
194,tuktoyaktuk,69.4541,-133.0374,-15.74,91,26,13.76,CA,1670202526
195,cidreira,-30.1811,-50.2056,71.67,94,61,3.2,BR,1670202526
196,puerto baquerizo moreno,-0.9,-89.6,69.62,82,86,8.48,EC,1670202527
197,ouesso,1.6136,16.0517,69.82,96,94,2.8,CG,1670202528
198,aranos,-24.1333,19.1167,71.35,19,45,10.89,NA,1670202528
199,fortuna,40.5982,-124.1573,50.67,92,100,14.97,US,1670202529
200,erdaojiang,41.7764,126.0319,12.0,62,0,3.2,CN,1670202530
201,airai,-8.9266,125.4092,75.51,38,92,0.87,TL,1670202530
202,coihaique,-45.5752,-72.0662,50.61,93,100,8.05,CL,1670202531
203,east london,-33.0153,27.9116,67.82,93,100,15.68,ZA,1670202307
204,college,64.8569,-147.8028,15.1,85,40,4.61,US,1670202532
205,longyearbyen,78.2186,15.6401,30.04,100,100,4.61,SJ,1670202532
206,urucui,-7.2294,-44.5561,80.37,62,100,3.09,BR,1670202533
207,victoria,22.2855,114.1577,64.26,77,100,17.0,HK,1670202313
208,solginskiy,61.05,41.3428,14.31,80,99,7.16,RU,1670202534
209,guerrero negro,27.9769,-114.0611,65.01,79,100,12.39,MX,1670202535
210,puerto madero,14.7208,-92.4215,79.0,100,40,0.0,MX,1670202535
211,nanortalik,60.1432,-45.2371,30.0,75,100,7.83,GL,1670202364
212,kirkuk,35.4681,44.3922,54.46,53,9,8.41,IQ,1670202536
213,loreto,22.2667,-101.9667,61.63,43,0,10.22,MX,1670202536
214,dolores,-36.3132,-57.6792,63.9,83,0,6.69,AR,1670202537
215,rio grande,-32.035,-52.0986,68.58,91,0,9.86,BR,1670202538
216,nileshwar,12.25,75.1,77.18,75,100,4.99,IN,1670202538
217,malaut,30.2167,74.4833,55.58,36,0,1.16,IN,1670202539
218,aguimes,27.9054,-15.4461,65.03,83,40,21.85,ES,1670202372
219,vestmannaeyjar,63.4427,-20.2734,38.39,68,91,15.86,IS,1670202540
220,nizhniy ingash,56.2,96.53,-7.1,98,6,4.36,RU,1670202540
221,takoradi,4.8845,-1.7554,79.34,84,28,9.42,GH,1670202541
222,broken hill,-31.95,141.4333,79.43,28,85,12.17,AU,1670202541
223,talnakh,69.4865,88.3972,24.21,96,100,6.02,RU,1670202542
224,emerald,-23.5333,148.1667,85.33,38,0,3.87,AU,1670202368
225,khandbari,27.3747,87.2039,53.85,65,53,3.47,NP,1670202543
226,tuy hoa,13.0833,109.3,76.26,91,92,7.09,VN,1670202543
227,villazon,-22.0866,-65.5942,49.73,55,2,12.41,BO,1670202544
228,lubango,-14.9172,13.4925,62.19,84,99,3.13,AO,1670202545
229,viedma,-40.8135,-62.9967,62.65,49,24,15.1,AR,1670202545
230,kidal,18.4411,1.4078,75.72,16,98,12.19,ML,1670202439
231,fowa,8.9167,6.4,78.42,37,30,4.12,NG,1670202547
232,san vicente,-26.6167,-54.1333,66.74,99,81,2.64,AR,1670202420
233,herat,34.5,62.0,27.88,67,88,10.22,AF,1670202547
234,shahr-e kord,32.3256,50.8644,35.55,80,65,2.82,IR,1670202548
235,solnechnyy,50.7214,136.6319,-3.19,70,15,3.91,RU,1670202456
236,marzuq,14.4,46.4667,57.27,41,27,1.88,YE,1670202550
237,mtinko,-4.55,34.85,62.24,69,100,3.0,TZ,1670202550
238,pouebo,-20.4,164.5667,81.21,78,95,6.8,NC,1670202551
239,dustlik,40.5247,68.0358,26.82,91,100,4.21,UZ,1670202551
240,lompoc,34.6391,-120.4579,60.01,85,20,5.75,US,1670202552
241,union,40.6334,-74.2663,42.89,62,0,6.91,US,1670202553
242,alice springs,-23.7,133.8833,94.55,11,0,9.22,AU,1670202553
243,kaduqli,11.0167,29.7167,74.75,33,4,10.27,SD,1670202554
244,pisco,-13.7,-76.2167,66.25,82,0,12.66,PE,1670202359
245,esperance,-33.8667,121.9,63.63,74,100,12.46,AU,1670202462
246,flinders,-34.5833,150.8552,84.25,50,6,9.57,AU,1670202555
247,gedo,9.0167,37.45,50.83,53,40,3.65,ET,1670202556
248,santa marta,11.2408,-74.199,81.9,74,97,11.01,CO,1670202557
249,batticaloa,7.7102,81.6924,77.38,85,100,3.67,LK,1670202557
250,narsaq,60.9167,-46.05,17.82,60,100,8.63,GL,1670202558
251,gigmoto,13.7796,124.39,80.78,87,100,10.13,PH,1670202558
252,murdochville,48.9583,-65.5006,10.45,88,56,5.46,CA,1670202559
253,port lincoln,-34.7333,135.8667,64.49,55,43,14.23,AU,1670202560
254,clyde river,70.4692,-68.5914,5.23,85,100,21.85,CA,1670202561
255,seguin,29.5688,-97.9647,59.36,81,100,3.44,US,1670202561
256,kiisa,59.2369,24.6889,26.89,99,81,1.7,EE,1670202562
257,santa lucia,27.9117,-15.5407,60.12,83,40,21.85,ES,1670202562
258,port hardy,50.6996,-127.4199,34.52,72,1,1.88,CA,1670202563
259,port blair,11.6667,92.75,82.44,83,75,8.05,IN,1670202563
260,apostolove,47.66,33.7137,23.02,54,2,15.12,UA,1670202564
261,hofn,64.2539,-15.2082,41.65,45,100,11.52,IS,1670202565
262,konyar,47.3167,21.6667,41.45,93,100,0.0,HU,1670202565
263,paamiut,61.994,-49.6678,25.23,73,20,21.14,GL,1670202566
264,ostrovnoy,68.0531,39.5131,23.13,89,100,15.68,RU,1670202566
265,ishikari,43.2397,141.3539,31.26,79,98,23.62,JP,1670202567
266,san-pedro,4.7485,-6.6363,78.24,86,51,4.63,CI,1670202568
267,ondangwa,-17.9167,15.95,79.29,24,97,9.55,NA,1670202568
268,coquimbo,-29.9533,-71.3436,60.53,94,75,4.61,CL,1670202279
269,stephenville,32.2207,-98.2023,56.19,88,100,4.61,US,1670202035
270,tulun,54.5611,100.5792,-4.77,95,74,2.73,RU,1670202569
271,jatai,-17.8814,-51.7144,69.57,91,100,4.59,BR,1670202570
272,torbay,47.6666,-52.7314,36.57,85,82,8.01,CA,1670202570
273,harper,4.375,-7.7169,78.21,86,79,7.0,LR,1670202571
274,namatanai,-3.6667,152.4333,82.54,75,98,6.62,PG,1670202572
275,kalagarh,29.5,78.75,54.84,73,0,2.35,IN,1670202572
276,kaitangata,-46.2817,169.8464,56.53,61,100,4.85,NZ,1670202573
277,port-gentil,-0.7193,8.7815,79.43,84,100,9.46,GA,1670202573
278,ilula,-7.6766,36.0366,60.19,87,100,3.44,TZ,1670202574
279,russell,32.3502,-85.1999,59.92,88,0,0.0,US,1670202575
280,la ronge,55.1001,-105.2842,4.37,86,100,17.67,CA,1670202575
281,saldanha,-33.0117,17.9442,61.03,80,0,15.5,ZA,1670202355
282,puerto madryn,-42.7692,-65.0385,66.16,46,12,16.67,AR,1670202576
283,yulara,-25.2406,130.9889,96.46,11,95,16.42,AU,1670202577
284,taldan,53.6667,124.8,-6.7,85,98,7.74,RU,1670202577
285,korla,41.7597,86.1469,21.78,36,100,1.81,CN,1670202578
286,nuuk,64.1835,-51.7216,31.87,79,98,28.99,GL,1670202346
287,lorengau,-2.0226,147.2712,82.89,73,86,5.59,PG,1670202579
288,tazovskiy,67.4667,78.7,27.77,92,100,15.32,RU,1670202580
289,arroyo,41.6096,-4.7969,41.59,85,100,3.44,ES,1670202580
290,aparecida do taboado,-20.0867,-51.0936,70.81,94,100,7.7,BR,1670202581
291,tessalit,20.1986,1.0114,74.07,17,100,10.49,ML,1670202582
292,coahuayana,18.7333,-103.6833,77.63,84,0,1.79,MX,1670202583
293,alice,27.7523,-98.0697,66.36,91,100,5.75,US,1670202583
294,deputatskiy,69.3,139.9,-15.41,98,100,3.74,RU,1670202584
295,andra,62.5147,65.8878,6.42,98,100,0.78,RU,1670202584
296,vila franca do campo,37.7167,-25.4333,57.61,79,100,3.6,PT,1670202585
297,talaya,61.3833,152.75,-23.42,98,100,0.83,RU,1670202586
298,rabat,33.9911,-6.8401,62.04,90,75,3.44,MA,1670202549
299,kaohsiung,22.6163,120.3133,73.35,85,40,8.05,TW,1670202304
300,sinnamary,5.3833,-52.95,76.21,88,100,4.25,GF,1670202587
301,ballina,-28.8667,153.5667,77.77,70,3,9.19,AU,1670202587
302,samarai,-10.6167,150.6667,83.21,69,75,12.62,PG,1670202588
303,nouadhibou,20.931,-17.0347,65.35,80,0,11.25,MR,1670202588
304,porto velho,-8.7619,-63.9039,77.05,94,20,1.14,BR,1670202379
305,necochea,-38.5473,-58.7368,58.71,91,14,6.06,AR,1670202589
306,balykshi,47.0667,51.8667,1.4,78,0,4.47,KZ,1670202590
307,hasaki,35.7333,140.8333,48.6,75,100,20.2,JP,1670202325
308,oviedo,43.3603,-5.8448,44.28,95,16,1.99,ES,1670202591
309,sibolga,1.7427,98.7792,75.07,93,100,1.32,ID,1670202591
310,gravdal,68.1214,13.5031,43.83,89,100,26.82,NO,1670202592
311,fez,34.0372,-4.9998,48.45,71,0,8.05,MA,1670202592
312,san lawrenz,36.0553,14.204,58.86,84,1,7.2,MT,1670202593
313,leningradskiy,69.3833,178.4167,12.9,95,100,14.12,RU,1670202593
314,morondava,-20.2833,44.2833,77.14,79,8,13.44,MG,1670202594
315,norman wells,65.282,-126.8329,-21.42,99,56,3.62,CA,1670202594
316,ilhabela,-23.7781,-45.3581,74.77,88,100,4.23,BR,1670202595
317,wronki,52.7105,16.3804,35.46,94,100,10.49,PL,1670202595
318,hambantota,6.1241,81.1185,73.74,100,40,2.3,LK,1670202596
319,trelew,-43.249,-65.3051,73.27,26,79,15.77,AR,1670202596
320,tlaltenango,19.1667,-98.3333,59.5,55,0,12.66,MX,1670202597
321,dudinka,69.4058,86.1778,24.62,95,100,15.14,RU,1670202598
322,price,39.5994,-110.8107,40.26,52,100,0.0,US,1670202598
323,el porvenir,13.7617,-87.3458,78.13,65,0,6.87,HN,1670202599
324,chiredzi,-21.05,31.6667,74.05,70,2,4.85,ZW,1670202599
325,poltavka,54.3663,71.7632,-4.81,98,7,3.24,RU,1670202314
326,diego de almagro,-26.3667,-70.05,67.35,29,0,3.49,CL,1670202601
327,adrar,20.5022,-10.0711,70.65,23,4,4.09,MR,1670202601
328,nefteyugansk,61.0998,72.6035,-10.48,100,100,2.15,RU,1670202307
329,verkhnyaya inta,65.9811,60.3094,2.23,98,98,5.97,RU,1670202602
330,asau,46.4333,26.4,27.52,98,100,3.71,RO,1670202399
331,tasiilaq,65.6145,-37.6368,28.56,65,87,3.29,GL,1670202603
332,evensk,61.95,159.2333,7.57,82,100,13.8,RU,1670202604
333,isangel,-19.55,169.2667,84.85,68,96,4.41,VU,1670202468
334,singaparna,-7.3515,108.111,78.75,76,66,1.21,ID,1670202605
335,galesong,-5.3166,119.3661,82.42,77,97,0.89,ID,1670202605
336,ust-ishim,57.6935,71.1665,-9.42,100,46,2.93,RU,1670202606
337,aklavik,68.2191,-135.0107,-12.64,97,84,8.41,CA,1670202606
338,erenhot,43.6475,111.9767,6.28,60,0,9.78,CN,1670202607
339,bubaque,11.2833,-15.8333,79.48,73,100,12.41,GW,1670202608
340,igrim,63.1906,64.4162,1.51,98,93,2.64,RU,1670202608
341,bayeux,-7.125,-34.9322,79.43,78,75,5.75,BR,1670202609
342,tabuk,17.4189,121.4443,79.14,78,91,1.77,PH,1670202522
343,effingham,32.3669,-81.3332,58.95,93,95,4.47,US,1670202610
344,meulaboh,4.1363,96.1285,76.77,89,100,7.27,ID,1670202610
345,elizabeth city,36.2946,-76.2511,42.8,74,0,9.22,US,1670202526
346,bat yam,32.0231,34.7503,59.05,77,0,2.3,IL,1670202611
347,mandalgovi,45.7625,106.2708,2.64,42,31,6.33,MN,1670202489
348,sungaipenuh,-2.0833,101.3833,66.65,88,100,0.43,ID,1670202612
349,ambanja,-13.6833,48.45,73.56,91,2,2.15,MG,1670202613
350,houma,29.5958,-90.7195,69.03,92,100,3.44,US,1670202442
351,mulchen,-37.7167,-72.2333,66.16,42,0,7.87,CL,1670202614
352,hithadhoo,-0.6,73.0833,81.73,75,100,9.35,MV,1670202615
353,charleston,32.7766,-79.9309,59.02,88,75,3.44,US,1670202226
354,gboko,7.3179,8.9951,77.68,47,5,5.14,NG,1670202616
355,notse,6.95,1.1667,76.82,85,58,4.59,TG,1670202617
356,milisauti,47.7833,26.0,32.25,90,100,12.71,RO,1670202617
357,sayat,38.7839,63.8803,29.03,41,100,7.63,TM,1670202618
358,eyemouth,55.8713,-2.0901,41.23,71,100,17.6,GB,1670202619
359,fairbanks,64.8378,-147.7164,15.1,86,40,4.61,US,1670202332
360,kamina,-8.7386,24.9906,62.28,98,100,2.04,CD,1670202620
361,barentu,15.1139,37.5928,67.91,53,0,3.76,ER,1670202620
362,loandjili,-4.7561,11.8578,76.6,90,100,1.39,CG,1670202621
363,ribeira grande,38.5167,-28.7,61.77,72,44,15.01,PT,1670202622
364,nerchinskiy zavod,51.3088,119.61,-26.64,100,83,4.41,RU,1670202622
365,carnduff,49.1667,-101.8009,18.37,88,17,12.41,CA,1670202623
366,myshkin,57.7897,38.4545,14.32,82,98,8.41,RU,1670202624
367,novaya ladoga,60.1025,32.3019,25.65,94,100,12.46,RU,1670202624
368,pemba,-12.974,40.5178,78.21,83,20,7.87,MZ,1670202625
369,mount gambier,-37.8333,140.7667,58.1,65,100,12.73,AU,1670202420
370,vizinga,61.0749,50.1031,2.86,98,29,1.45,RU,1670202626
371,ossora,59.2353,163.0719,17.64,92,100,22.97,RU,1670202627
372,butembo,0.15,29.2833,56.07,96,100,2.42,CD,1670202627
373,penzance,50.1186,-5.5371,43.48,81,100,21.59,GB,1670202628
374,nisia floresta,-6.0911,-35.2086,76.01,77,15,8.7,BR,1670202628
375,makakilo city,21.3469,-158.0858,80.35,67,100,10.36,US,1670202629
376,anori,-3.7728,-61.6442,73.38,98,77,1.83,BR,1670202630
377,zhangye,38.9342,100.4517,21.54,62,0,2.19,CN,1670202397
378,presidencia roque saenz pena,-26.7852,-60.4388,77.58,33,0,2.77,AR,1670202630
379,alta floresta,-9.8756,-56.0861,70.92,98,99,3.06,BR,1670202419
380,gympie,-26.1898,152.665,84.87,41,14,3.38,AU,1670202609
381,krivosheino,57.3431,83.9261,-16.67,98,19,1.52,RU,1670202631
382,monze,-16.2833,27.4833,69.76,43,10,2.46,ZM,1670202632
383,haapiti,-17.5667,-149.8667,85.73,75,55,13.82,PF,1670202632
384,maningrida,-12.0667,134.2667,89.06,53,58,6.67,AU,1670202633
385,neryungri,56.6709,124.6491,2.12,91,100,4.25,RU,1670202633
386,olinda,-8.0089,-34.8553,76.73,88,75,6.91,BR,1670202539
387,erzin,36.9559,36.2,56.07,57,10,3.69,TR,1670202635
388,maniitsoq,65.4167,-52.9,33.22,69,100,20.11,GL,1670202635
389,assiniboia,49.6334,-105.9845,18.09,87,10,14.74,CA,1670202636
390,arkhangelsk,64.5401,40.5433,12.31,92,100,6.71,RU,1670202433
391,sayyan,15.1718,44.3244,45.23,46,1,3.74,YE,1670202637
392,chaozhou,23.6651,116.6379,61.32,70,53,9.08,CN,1670202637
393,bloemfontein,-29.1211,26.214,68.85,15,100,11.21,ZA,1670202638
394,goma,-1.6792,29.2228,60.84,86,100,3.76,CD,1670202638
395,straumen,63.8709,11.2999,23.0,71,100,4.61,NO,1670202639
396,beysehir,37.6773,31.7246,41.16,75,67,2.93,TR,1670202639
397,saint anthony,45.0205,-93.218,32.92,59,0,11.5,US,1670202640
398,pacasmayo,-7.4006,-79.5714,64.9,83,3,9.33,PE,1670202519
399,atar,20.5169,-13.0499,67.59,27,0,1.86,MR,1670202641
400,dejen,10.1667,38.1333,50.29,41,4,4.32,ET,1670202641
401,hirara,24.8,125.2833,76.21,76,19,8.03,JP,1670202642
402,sola,-13.8833,167.55,82.58,69,67,14.9,VU,1670202615
403,malaya vishera,58.8454,32.2222,24.22,86,100,10.51,RU,1670202642
404,sao borja,-28.6606,-56.0044,72.95,63,69,7.85,BR,1670202643
405,nemuro,43.3236,145.575,28.22,51,27,19.53,JP,1670202644
406,margate,51.3813,1.3862,42.69,84,100,5.99,GB,1670202644
407,biak,-0.9131,122.8766,81.27,73,100,1.3,ID,1670202645
408,warmbad,-28.45,18.7333,56.73,55,0,10.45,NA,1670202645
409,tambura,5.6,27.4667,77.34,40,94,2.75,SS,1670202646
410,angouleme,45.65,0.15,38.03,100,0,3.44,FR,1670202370
411,seoul,37.5683,126.9778,25.99,19,91,5.32,KR,1670202364
412,veraval,20.9,70.3667,71.06,34,2,12.01,IN,1670202648
413,sakaiminato,35.55,133.2333,51.21,54,100,10.74,JP,1670202648
414,pozhva,59.0912,56.0847,6.03,96,77,5.12,RU,1670202649
415,sai buri,6.7013,101.6168,77.88,88,100,4.12,TH,1670202649
416,luanda,-8.8368,13.2343,76.23,83,100,4.32,AO,1670202650
417,los llanos de aridane,28.6585,-17.9182,65.95,93,75,24.16,ES,1670202650
418,garissa,-0.4536,39.6401,77.07,72,95,6.78,KE,1670202651
419,nabire,-3.3667,135.4833,86.05,62,80,2.98,ID,1670202480
420,marsabit,2.3284,37.9899,65.08,73,32,9.66,KE,1670202652
421,kieta,-6.2167,155.6333,83.32,74,89,4.12,PG,1670202652
422,katsuura,35.1333,140.3,54.19,83,100,19.69,JP,1670202653
423,lubbock,33.6001,-101.8338,59.14,64,75,6.91,US,1670202414
424,ryotsu,38.0833,138.4333,40.68,88,100,11.9,JP,1670202654
425,guilin,25.2819,110.2864,42.3,80,50,8.9,CN,1670202655
426,osakarovka,50.565,72.5692,-19.84,100,59,3.11,KZ,1670202655
427,westport,41.1415,-73.3579,39.74,66,0,1.01,US,1670202656
428,parana,-31.732,-60.5238,85.57,45,0,10.42,AR,1670202657
429,lazaro cardenas,17.9583,-102.2,79.09,79,0,4.34,MX,1670202508
430,cabedelo,-6.9811,-34.8339,79.47,77,22,12.68,BR,1670202657
431,novopokrovka,49.8425,36.5477,18.27,58,7,11.36,UA,1670202658
432,yumen,40.2833,97.2,11.32,85,15,6.46,CN,1670202659
433,songjianghe,42.1859,127.479,9.57,61,1,7.43,CN,1670202660
434,ulladulla,-35.35,150.4667,82.87,41,61,4.29,AU,1670202660
435,stawell,-37.05,142.7667,57.49,71,100,17.05,AU,1670202661
436,lata,40.1629,-8.3327,50.07,78,100,9.22,PT,1670202662
437,riyadh,24.6877,46.7219,62.74,38,61,8.03,SA,1670202440
438,nador,35.174,-2.9287,57.45,94,0,4.61,MA,1670202663
439,tottori,35.5,134.2333,51.12,63,100,10.04,JP,1670202663
440,thunder bay,48.4001,-89.3168,25.93,71,100,13.94,CA,1670202474
441,darhan,49.4867,105.9228,-9.72,91,5,5.35,MN,1670202664
442,vila velha,-20.3297,-40.2925,71.94,95,20,3.44,BR,1670202665
443,saint-francois,46.4154,3.9054,38.64,93,100,3.44,FR,1670202666
444,mongo,12.1844,18.693,71.91,15,0,5.61,TD,1670202574
445,kandy,7.2955,80.6356,67.42,95,96,2.82,LK,1670202666
446,redlands,34.0556,-117.1825,61.54,73,100,4.61,US,1670202667
447,bauta,22.9828,-82.5464,66.09,88,20,2.3,CU,1670202668
448,namibe,-15.1961,12.1522,69.39,82,100,2.19,AO,1670202668
449,saint-denis,48.9167,2.3333,38.08,92,100,8.05,FR,1670202669
450,abu dhabi,24.4667,54.3667,74.97,79,0,3.44,AE,1670202395
451,dunedin,-45.8742,170.5036,55.8,66,94,4.0,NZ,1670202412
452,mecca,21.4267,39.8261,74.7,80,99,5.12,SA,1670202407
453,porbandar,21.6422,69.6093,69.73,40,0,11.79,IN,1670202670
454,broome,42.2506,-75.833,33.66,69,0,5.75,US,1670202671
455,kyaikto,17.3,97.0167,77.68,81,100,3.2,MM,1670202489
456,juneau,58.3019,-134.4197,29.21,93,20,0.0,US,1670202372
457,yerbogachen,61.2767,108.0108,8.42,89,100,14.18,RU,1670202672
458,rodeo,38.033,-122.2669,58.21,76,40,8.05,US,1670202673
459,orsha,54.5153,30.4053,15.31,85,100,10.2,BY,1670202673
460,wanning,18.8003,110.3967,72.25,86,88,16.2,CN,1670202674
461,limbang,4.75,115.0,82.51,82,100,1.25,MY,1670202674
462,arlit,18.7369,7.3853,76.06,18,9,7.56,NE,1670202675
463,mawlaik,23.6333,94.4167,67.24,84,58,1.83,MM,1670202675
464,didwana,27.4,74.5667,56.95,34,0,5.41,IN,1670202676
465,kudahuvadhoo,2.6708,72.8944,78.48,83,85,5.84,MV,1670202676
466,hikone,35.25,136.25,54.88,56,60,5.99,JP,1670202677
467,masvingo,-20.0637,30.8277,69.69,57,1,4.43,ZW,1670202677
468,lazi,48.0667,24.2333,33.08,93,38,2.01,UA,1670202678
469,barranca,-10.75,-77.7667,66.63,80,0,6.67,PE,1670202679
470,yanaul,56.2719,54.9309,6.44,96,99,6.44,RU,1670202679
471,mattawa,46.7379,-119.9028,30.02,92,100,1.01,US,1670202680
472,morrope,-6.5417,-80.0111,65.7,79,5,11.27,PE,1670202680
473,sambava,-14.2667,50.1667,74.23,86,45,8.1,MG,1670202681
474,sidrolandia,-20.9319,-54.9614,70.14,92,100,4.94,BR,1670202682
475,acari,-15.4311,-74.6158,70.79,74,6,3.33,PE,1670202682
476,tahe,52.3333,124.7333,-3.96,78,100,4.99,CN,1670202683
477,cayenne,4.9333,-52.3333,75.24,100,0,0.0,GF,1670202683
478,parva,47.4,24.55,33.15,90,30,2.08,RO,1670202684
479,urengoy,65.9667,78.3667,25.81,94,100,12.24,RU,1670202684
480,nanyang,32.9947,112.5328,38.3,45,6,3.2,CN,1670202685
481,orlik,52.5178,99.825,-20.72,92,12,2.39,RU,1670202686
482,bykovo,55.6361,38.0803,10.56,85,0,4.47,RU,1670202686
483,omboue,-1.5746,9.2618,76.01,90,100,4.74,GA,1670202687
484,bonavista,48.6499,-53.1147,37.58,82,88,26.28,CA,1670202688
485,laguna,38.421,-121.4238,53.58,90,100,6.91,US,1670202688
486,angoche,-16.2325,39.9086,78.76,75,77,8.25,MZ,1670202689
487,haizhou,34.5817,119.1289,38.7,47,77,5.88,CN,1670202690
488,klaksvik,62.2266,-6.589,40.12,75,98,13.96,FO,1670202690
489,searcy,35.2506,-91.7363,40.14,83,100,4.61,US,1670202691
490,visby,57.6409,18.296,37.06,87,100,10.36,SE,1670202691
491,constitucion,-35.3333,-72.4167,56.16,80,0,13.78,CL,1670202692
492,thap than,15.4606,99.8917,76.82,81,12,3.4,TH,1670202692
493,carauari,-4.8828,-66.8958,75.54,87,6,2.15,BR,1670202693
494,tecoanapa,16.5167,-98.75,79.7,66,0,6.35,MX,1670202694
495,gazli,40.1333,63.45,21.16,59,2,7.56,UZ,1670202694
496,yar-sale,66.8333,70.8333,18.09,88,100,11.01,RU,1670202696
497,san cristobal,7.7669,-72.225,68.18,98,100,3.69,VE,1670202696
498,orel-izumrud,43.4583,39.9244,50.02,66,100,6.71,RU,1670202697
499,myaundzha,63.0494,147.1858,-50.73,99,59,1.97,RU,1670202697
500,te anau,-45.4167,167.7167,64.26,50,98,7.92,NZ,1670202698
501,guiratinga,-16.3494,-53.7583,71.37,93,99,5.03,BR,1670202698
502,faya,18.3851,42.4509,48.72,82,0,3.44,SA,1670202699
503,hauterive,46.0901,3.4459,32.76,96,88,3.47,FR,1670202699
504,mezen,65.8522,44.24,11.19,89,76,8.86,RU,1670202700
505,peniche,39.3558,-9.3811,56.28,89,100,19.93,PT,1670202701
506,fairview,40.8126,-73.999,42.21,55,0,6.91,US,1670202610
507,byron bay,-28.65,153.6167,77.7,64,4,9.95,AU,1670202520
508,kaeo,-35.1,173.7833,70.77,55,0,9.35,NZ,1670202702
509,gilgit,35.9221,74.3087,38.37,48,63,1.1,PK,1670202702
510,rawson,-43.3002,-65.1023,69.35,35,38,20.4,AR,1670202658
511,the pas,53.8251,-101.2541,6.82,72,100,17.27,CA,1670202703
512,neresnytsya,48.1181,23.7659,41.47,86,58,3.42,UA,1670202704
513,anadyr,64.75,177.4833,9.1,84,20,31.32,RU,1670202704
514,hokitika,-42.7167,170.9667,60.12,72,80,7.58,NZ,1670202705
515,mnogovershinnyy,53.9353,139.9242,-12.5,81,100,7.43,RU,1670202705
516,caraballeda,10.6112,-66.8522,73.96,85,84,1.9,VE,1670202706
517,evora,38.5667,-7.9,52.45,92,100,13.8,PT,1670202706
518,marion,39.7684,-86.1555,33.53,58,20,6.91,US,1670202707
519,makubetsu,45.3714,141.8211,19.11,79,75,24.16,JP,1670202707
520,zhezkazgan,47.8043,67.7144,-0.2,90,6,4.54,KZ,1670202708
521,ondjiva,-17.0667,15.7333,76.84,32,70,9.62,AO,1670202709
